{
  "ChIJC5JRawAtjk8RwZiczH8MuI": { "name": "Varanasi Junction", "formatted_address": "Varanasi Railway Station Road, Railwayganj Colony, Varanasi, Uttar Pradesh 221002, India", "lat": 25.328014, "lng": 82.986509 },
  "ChIJB57f8a-2fDkRAwZicZHzMuI": { "name": "Varanasi Airport (VNS)", "formatted_address": "Babatpur, Uttar Pradesh 221006, India", "lat": 25.452784, "lng": 82.858546 },
  "ChIJ8Y8XwY2VNTkRjL2vK8mLsQ0": { "name": "Varanasi Cantt", "formatted_address": "Cantt Area, Varanasi, Uttar Pradesh 221002, India", "lat": 25.333712, "lng": 82.989197 },
  "ChIJ4dcVUz8mzrkSnwFE4gnwbU": { "name": "Lucknow N.R. Railway Stadium", "formatted_address": "Station Road, Charbagh, Lucknow, Uttar Pradesh 226001, India", "lat": 26.831600, "lng": 80.921800 },
  "ChIJJ8uzH8r8nzkR8n4f3KVO83g": { "name": "Lucknow Junction NER", "formatted_address": "Railway Colony, Charbagh, Lucknow, Uttar Pradesh 226001, India", "lat": 26.831649, "lng": 80.921799 },
  "ChIJq6qqqvO3OjkR9kLmN0pQ_rM": { "name": "Lucknow - Agra Expressway", "formatted_address": "Khargua, Deeg, Uttar Pradesh, India", "lat": 27.135000, "lng": 77.980000 },
  "ChIJn3At07SmzrkMhDA6fXdT": { "name": "Chaudhary Charan Singh International Airport (LKO)", "formatted_address": "Amausi, Lucknow, Uttar Pradesh 226009, India", "lat": 26.760594, "lng": 80.889276 },
  "ChIJN3Gx0W7o5zsR4IX7GQG4": { "name": "Mumbai Central", "formatted_address": "Mumbai Central, Mumbai, Maharashtra 400008, India", "lat": 18.969681, "lng": 72.819397 },
  "ChIJ3b8z7Y3DxjsR7g9m9b2p1kM": { "name": "Mumbai Central Railway Station Building", "formatted_address": "Mumbai Central, Mumbai, Maharashtra 400008, India", "lat": 18.969681, "lng": 72.819397 },
  "ChIJM9g6z8vL4jkR9kLmN0pQ_rM": { "name": "Mumbai Naka, Renuka Nagar", "formatted_address": "Renuka Nagar, Nashik, Maharashtra 422003, India", "lat": 19.997500, "lng": 73.789700 },
  "ChIJA1bFkT5kYzAR8J0qR5vD4iM": { "name": "Mumbai - Pune Expressway", "formatted_address": "Panvel, Navi Mumbai, Maharashtra 410206, India", "lat": 18.989611, "lng": 73.315216 },
  "ChIJLbZ-NFv9DDkR4bFecgMFeFgM": { "name": "Delhi", "formatted_address": "Delhi, India", "lat": 28.613895, "lng": 77.209006 },
  "ChIJUbZ-NFv9DDkR0JY4FbFecgM": { "name": "Delhi Cantt Railway Junction", "formatted_address": "Kirby Place, Delhi Cantonment, New Delhi, Delhi 110010, India", "lat": 28.612345, "lng": 77.147892 },
  "ChIJSd6Q_UBIDDkR7u6j2vB3j4k": { "name": "Delhi Airport (DEL)", "formatted_address": "New Delhi, Delhi 110037, India", "lat": 28.556162, "lng": 77.099958 },
  "ChIJ5f5p5oF4AjoR8f8e8tY9z0M": { "name": "Delhi Railway Station", "formatted_address": "Meena Bazaar, Jama Masjid, Old Delhi, Delhi 110006, India", "lat": 28.641178, "lng": 77.220407 },
  "ChIJL0e2ff4VrjsR2j3wI4x5tQw": { "name": "Kempegowda International Airport Bengaluru (BLR)", "formatted_address": "Devanahalli, Bengaluru, Karnataka 560300, India", "lat": 13.198889, "lng": 77.706778 },
  "ChIJVJEd4gRisYARikFoewlybCk": { "name": "Bangalore Palace", "formatted_address": "Palace Cross Road, Vasanth Nagar, Bengaluru, Karnataka 560052, India", "lat": 12.998682, "lng": 77.592093 },
  "ChIJK3p2vK4WrjsR9kLmN0pQ_rM": { "name": "Bangalore Cantonment Railway Station", "formatted_address": "Shivaji Nagar, Bengaluru, Karnataka 560046, India", "lat": 12.993298, "lng": 77.604233 },
  "ChIJ0Y7KkZ0tdk8R6g7h8i9j0k1": { "name": "Bangalore Baptist Hospital", "formatted_address": "Bellary Road, Hebbal, Bengaluru, Karnataka 560024, India", "lat": 13.042373, "lng": 77.595512 },
  "ChIJNOGuJmHIDkR7oG7SGkbSM": { "name": "Noida City Centre Bus Stand", "formatted_address": "Morna, Sector 35, Noida, Uttar Pradesh 201301, India", "lat": 28.574532, "lng": 77.353683 },
  "ChIJbY4v0vL94jkR9kLmN0pQ_rM": { "name": "Noida Stadium", "formatted_address": "Sector 21A, Noida, Uttar Pradesh 201301, India", "lat": 28.597500, "lng": 77.342800 },
  "ChIJA8f6J6x3czAR7k9m0nP1q2R": { "name": "Noida City Center", "formatted_address": "Sector 39, Noida, Uttar Pradesh 201301, India", "lat": 28.574532, "lng": 77.353683 },
  "ChIJF5k5S5YBDTkR3f5g6hJ7k8L": { "name": "Noida Sector 16 Metro Station", "formatted_address": "Sector 16, Noida, Uttar Pradesh 201301, India", "lat": 28.577583, "lng": 77.317236 },
  "ChIJgZmJawB3AjoRyCvgdhe4pIU": { "name": "Kolkata Railway Station (KOAA)", "formatted_address": "Belgachia, Kolkata, West Bengal 700037, India", "lat": 22.601814, "lng": 88.383037 },
  "ChIJJ2qKX5gA3joR9kLmN0pQ_rM": { "name": "Netaji Subhash Chandra Bose International Airport (CCU)", "formatted_address": "Jessore Road, Dum Dum, Kolkata, West Bengal 700052, India", "lat": 22.654739, "lng": 88.446731 },
  "ChIJXYZ123abcDEF456ghiJKL": { "name": "Delhi - Mumbai Expressway", "formatted_address": "Anagad, Gujarat, India", "lat": 23.022505, "lng": 72.571362 },
  "ChIJABC789xyzDEF012ghiJKL": { "name": "Kolkata Airport Quarters", "formatted_address": "Dum Dum, Kolkata, West Bengal 700052, India", "lat": 22.654739, "lng": 88.446731 },
  "ChIJC5JRawAtjk8RwZiczH8MuI": { "name": "Varanasi Railway Station (duplicate entry)", "formatted_address": "Raja Bazar Road, Patel Nagar, Nadesar, Chaukaghat, Varanasi, Uttar Pradesh 221002, India", "lat": 25.328014, "lng": 82.986509 }
}