{
  "ChIJC5JRawAtjk8RwZiczH8MuI": {
    "name": "Varanasi Junction",
    "formatted_address": "Varanasi Railway Station Road, Railwayganj Colony, Varanasi, Uttar Pradesh 221002, India",
    "lat": 25.3264867,
    "lng": 82.9864435
  },
  "ChIJB57f8a-2fDkRAwZicZHzMuI": {
    "name": "Lal Bahadur Shastri International Airport (VNS)",
    "formatted_address": "Babatpur, Uttar Pradesh 221006, India",
    "lat": 25.4506565,
    "lng": 82.8559854
  },
  "ChIJ8Y8XwY2VNTkRjL2vK8mLsQ0": {
    "name": "Varanasi Cantt",
    "formatted_address": "Varanasi Cantonment, Varanasi, Uttar Pradesh 221002, India",
    "lat": 25.329059,
    "lng": 82.9658309
  },
  "ChIJ4dcVUz8mzrkSnwFE4gnwbU": {
    "name": "Lucknow Junction NER",
    "formatted_address": "Charbagh, Lucknow, Uttar Pradesh 226001, India",
    "lat": 26.831692,
    "lng": 80.92134709999999
  },
  "ChIJJ8uzH8r8nzkR8n4f3KVO83g": {
    "name": "Lucknow Junction NER",
    "formatted_address": "Railway Colony, Charbagh, Lucknow, Uttar Pradesh 226001, India",
    "lat": 26.83324151,
    "lng": 80.92915119999999
  },
  "ChIJq6qqqvO3OjkR9kLmN0pQ_rM": {
    "name": "Agra - Lucknow Expressway",
    "formatted_address": "Agra - Lucknow Expy, Khargua, Deeg, Uttar Pradesh, India",
    "lat": 27.135000,
    "lng": 77.980000
  },
  "ChIJn3At07SmzrkMhDA6fXdT": {
    "name": "Chaudhary Charan Singh International Airport (LKO)",
    "formatted_address": "Amausi, Lucknow, Uttar Pradesh 226009, India",
    "lat": 26.7617171,
    "lng": 80.88564749999999
  },
  "ChIJN3Gx0W7o5zsR4IX7GQG4": {
    "name": "Mumbai Central",
    "formatted_address": "Mumbai Central, Mumbai, Maharashtra 400008, India",
    "lat": 18.9690247,
    "lng": 72.8205492
  },
  "ChIJM9g6z8vL4jkR9kLmN0pQ_rM": {
    "name": "Mumbai Naka, Renuka Nagar",
    "formatted_address": "Mumbai Naka, Renuka Nagar, Nashik, Maharashtra 422003, India",
    "lat": 19.997500,
    "lng": 73.789700
  },
  "ChIJ3b8z7Y3DxjsR7g9m9b2p1kM": {
    "name": "Mumbai Central Railway Station",
    "formatted_address": "Mumbai Central, Mumbai, Maharashtra 400008, India",
    "lat": 18.969539,
    "lng": 72.819329
  },
  "ChIJA1bFkT5kYzAR8J0qR5vD4iM": {
    "name": "Mumbai - Pune Expressway",
    "formatted_address": "Panvel, Navi Mumbai, Maharashtra, India",
    "lat": 19.002,
    "lng": 73.128344
  },
  "ChIJLbZ-NFv9DDkR4bFecgMFeFgM": {
    "name": "Delhi",
    "formatted_address": "Delhi, India",
    "lat": 28.7040592,
    "lng": 77.10249019999999
  },
  "ChIJUbZ-NFv9DDkR0JY4FbFecgM": {
    "name": "Delhi Cantt Railway Station",
    "formatted_address": "Kirby Place, Delhi Cantonment, New Delhi, Delhi 110010, India",
    "lat": 28.6109026,
    "lng": 77.149472
  },
  "ChIJSd6Q_UBIDDkR7u6j2vB3j4k": {
    "name": "Indira Gandhi International Airport (DEL)",
    "formatted_address": "New Delhi, Delhi 110037, India",
    "lat": 28.5561437,
    "lng": 77.0999623
  },
  "ChIJ5f5p5oF4AjoR8f8e8tY9z0M": {
    "name": "New Delhi Railway Station",
    "formatted_address": "Meena Bazaar, Jama Masjid, Old Delhi, Delhi 110006, India",
    "lat": 28.6426028,
    "lng": 77.21921669999999
  },
  "ChIJL0e2ff4VrjsR2j3wI4x5tQw": {
    "name": "Kempegowda International Airport Bengaluru (BLR)",
    "formatted_address": "Devanahalli, Bengaluru, Karnataka 560300, India",
    "lat": 13.198909,
    "lng": 77.7068926
  },
  "ChIJVJEd4gRisYARikFoewlybCk": {
    "name": "Bangalore Palace",
    "formatted_address": "Palace Cross Road, Vasanth Nagar, Bengaluru, Karnataka 560052, India",
    "lat": 12.9966135,
    "lng": 77.5920581
  },
  "ChIJK3p2vK4WrjsR9kLmN0pQ_rM": {
    "name": "Bangalore Cantonment Railway Station",
    "formatted_address": "Cantonment Railway Quarters, Shivaji Nagar, Bengaluru, Karnataka 560046, India",
    "lat": 12.9939369,
    "lng": 77.5980282
  },
  "ChIJ0Y7KkZ0tdk8R6g7h8i9j0k1": {
    "name": "Bangalore Baptist Hospital",
    "formatted_address": "Bellary Road, Vinayakanagar, Hebbal, Bengaluru, Karnataka 560024, India",
    "lat": 13.0356137,
    "lng": 77.5896209
  },
  "ChIJNOGuJmHIDkR7oG7SGkbSM": {
    "name": "Noida City Centre Bus Stand",
    "formatted_address": "Morna, Sector 35, Noida, Uttar Pradesh 201301, India",
    "lat": 28.5759152,
    "lng": 77.35734479999999
  },
  "ChIJA8f6J6x3czAR7k9m0nP1q2R": {
    "name": "Noida City Center",
    "formatted_address": "Sector 39, Noida, Uttar Pradesh 201301, India",
    "lat": 28.57480992,
    "lng": 77.3565809999999
  },
  "ChIJF5k5S5YBDTkR3f5g6hJ7k8L": {
    "name": "Noida Sector 16 Metro Station",
    "formatted_address": "Block A, Sector 3, Noida, Uttar Pradesh 201301, India",
    "lat": 28.578831,
    "lng": 77.3173376
  },
  "ChIJbY4v0vL94jkR9kLmN0pQ_rM": {
    "name": "Noida Stadium",
    "formatted_address": "Sector 21A, Noida, Uttar Pradesh 201301, India",
    "lat": 28.596972,
    "lng": 77.342861
  },
  "ChIJgZmJawB3AjoRyCvgdhe4pIU": {
    "name": "Kolkata Railway Station (KOAA)",
    "formatted_address": "Belgachia, Kolkata, West Bengal 700037, India",
    "lat": 22.6020984,
    "lng": 88.38294549999999
  },
  "ChIJb5b594e-62fd-aad6-da88a193ec61": {
    "name": "Netaji Subhash Chandra Bose International Airport (CCU)",
    "formatted_address": "Dum Dum, Kolkata, West Bengal 700052, India",
    "lat": 22.653564,
    "lng": 88.4450847
  },
  "ChIJJ2qKX5gA3joR9kLmN0pQ_rM": {
    "name": "Kolkata Airport Quarters",
    "formatted_address": "Dum Dum, Kolkata, West Bengal, India",
    "lat": 22.654739,
    "lng": 88.446731
  }
}